{
  "places": {
    "hradec_kralove": {
      "name": "Hradec Králové",
      "lat": 50.2092,
      "lng": 15.8328,
      "country": "Česko",
      "dayLabel": "1/18"
    },
    "rostock_ferry": {
      "name": "Rostock (trajekt)",
      "lat": 54.1445881,
      "lng": 12.0976681,
      "country": "Německo",
      "dayLabel": "1/17"
    },
    "trelleborg_ferry": {
      "name": "Trelleborg (trajekt)",
      "lat": 55.3699862,
      "lng": 13.1503256,
      "country": "Švédsko",
      "dayLabel": "1/17"
    },
    "oslo": {
      "name": "Oslo",
      "lat": 59.9139,
      "lng": 10.7522,
      "country": "Norsko",
      "dayLabel": "2"
    },
    "lillehammer": {
      "name": "Lillehammer",
      "lat": 61.1153,
      "lng": 10.4662,
      "country": "Norsko",
      "dayLabel": "3"
    },
    "rondane": {
      "name": "NP Rondane",
      "lat": 62.0764,
      "lng": 9.5828,
      "country": "Norsko",
      "dayLabel": "4"
    },
    "sundalsora": {
      "name": "Sundalsora",
      "lat": 62.2436,
      "lng": 8.6136,
      "country": "Norsko",
      "dayLabel": "5"
    },
    "trondheim": {
      "name": "Trondheim",
      "lat": 63.4305,
      "lng": 10.3951,
      "country": "Norsko",
      "dayLabel": "6"
    },
    "laksforsen": {
      "name": "Laksforsen",
      "lat": 65.6641,
      "lng": 13.2694,
      "country": "Norsko",
      "dayLabel": "7"
    },
    "kilboghamn_ferry": {
      "name": "Kilboghamn (trajekt)",
      "lat": 66.4891,
      "lng": 13.2275,
      "country": "Norsko",
      "dayLabel": "8"
    },
    "jektvik_ferry": {
      "name": "Jektvik (trajekt)",
      "lat": 66.6243,
      "lng": 13.2853,
      "country": "Norsko",
      "dayLabel": "8"
    },
    "agskardet_ferry": {
      "name": "Ågskardet (trajekt)",
      "lat": 66.7193,
      "lng": 13.4707,
      "country": "Norsko",
      "dayLabel": "8"
    },
    "foroy_ferry": {
      "name": "Forøy (trajekt)",
      "lat": 66.7386,
      "lng": 13.5139,
      "country": "Norsko",
      "dayLabel": "8"
    },
    "furoy": {
      "name": "Furøy Camping",
      "lat": 66.73874,
      "lng": 13.5012,
      "country": "Norsko",
      "dayLabel": "8–9"
    },
    "junkerdal": {
      "name": "Junkerdal",
      "lat": 66.112,
      "lng": 14.063,
      "country": "Norsko",
      "dayLabel": "10"
    },
    "myrkulla": {
      "name": "Myrkulla (Arvidsjaur)",
      "lat": 65.9397278,
      "lng": 18.8357806,
      "country": "Švédsko",
      "dayLabel": "11–14"
    },
    "axmarbruk": {
      "name": "Axmarbruk",
      "lat": 61.3014,
      "lng": 17.0167,
      "country": "Švédsko",
      "dayLabel": "15"
    },
    "vimmerby": {
      "name": "Vimmerby",
      "lat": 57.6659,
      "lng": 15.8557,
      "country": "Švédsko",
      "dayLabel": "16"
    },
    "ales_stenar": {
      "name": "Ales Stenar",
      "lat": 55.3869,
      "lng": 14.0534,
      "country": "Švédsko",
      "dayLabel": "17"
    }
  },
  "daySegments": {
    "1": [
      "hk_rostock",
      "rostock_trelleborg_ferry"
    ],
    "2": [
      "trelleborg_oslo"
    ],
    "3": [
      "oslo_lillehammer"
    ],
    "4": [
      "lillehammer_rondane"
    ],
    "5": [
      "rondane_sundalsora"
    ],
    "6": [
      "sundalsora_trondheim"
    ],
    "7": [
      "trondheim_laksforsen"
    ],
    "8": [
      "laksforsen_kilboghamn",
      "kilboghamn_jektvik_ferry",
      "jektvik_agskardet",
      "agskardet_foroy_ferry",
      "foroy_furoy"
    ],
    "9": [],
    "10": [
      "furoy_junkerdal"
    ],
    "11": [
      "junkerdal_myrkulla"
    ],
    "12": [],
    "13": [],
    "14": [],
    "15": [
      "myrkulla_axmarbruk"
    ],
    "16": [
      "axmarbruk_vimmerby"
    ],
    "17": [
      "vimmerby_ales_stenar",
      "ales_stenar_trelleborg",
      "trelleborg_rostock_ferry"
    ],
    "18": [
      "rostock_hk"
    ]
  }
}